[
  {
    "StationId": 1,
    "PositionName": "呼市一监",
    "Area": "呼和浩特市",
    "UniqueCode": 150100056,
    "StationCode": "1001A",
    "StationPic": 0,
    "Longitude": 111.651,
    "Latitude": 40.7579,
    "Address": 0,
    "PollutantCodes": "100,101,102,104,105,000",
    "StationTypeId": 1,
    "Status": 1,
    "BuildDate": "42:56.7",
    "Phone": 0,
    "Manager": 0,
    "Description": 0,
    "IsMonitor": 1,
    "IsContrast": 0
  },
  {
    "StationId": 2,
    "PositionName": "小召",
    "Area": "呼和浩特市",
    "UniqueCode": 150100051,
    "StationCode": "1002A",
    "StationPic": 0,
    "Longitude": 111.658,
    "Latitude": 40.8033,
    "Address": 0,
    "PollutantCodes": "100,101,102,104,105,000",
    "StationTypeId": 1,
    "Status": 1,
    "BuildDate": "42:56.7",
    "Phone": 0,
    "Manager": 0,
    "Description": 0,
    "IsMonitor": 1,
    "IsContrast": 0
  },
  {
    "StationId": 3,
    "PositionName": "兴松小区",
    "Area": "呼和浩特市",
    "UniqueCode": 150100052,
    "StationCode": "1003A",
    "StationPic": 0,
    "Longitude": 111.659,
    "Latitude": 40.8452,
    "Address": 0,
    "PollutantCodes": "100,101,102,104,105,000",
    "StationTypeId": 1,
    "Status": 1,
    "BuildDate": "42:56.7",
    "Phone": 0,
    "Manager": 0,
    "Description": 0,
    "IsMonitor": 1,
    "IsContrast": 0
  },
  {
    "StationId": 4,
    "PositionName": "糖厂",
    "Area": "呼和浩特市",
    "UniqueCode": 150100053,
    "StationCode": "1004A",
    "StationPic": 0,
    "Longitude": 111.608,
    "Latitude": 40.8144,
    "Address": 0,
    "PollutantCodes": "100,101,102,104,105,000",
    "StationTypeId": 1,
    "Status": 1,
    "BuildDate": "42:56.7",
    "Phone": 0,
    "Manager": 0,
    "Description": 0,
    "IsMonitor": 1,
    "IsContrast": 0
  },
  {
    "StationId": 5,
    "PositionName": "如意水处理厂",
    "Area": "呼和浩特市",
    "UniqueCode": 150100054,
    "StationCode": "1005A",
    "StationPic": 0,
    "Longitude": 111.751,
    "Latitude": 40.8369,
    "Address": 0,
    "PollutantCodes": "100,101,102,104,105,000",
    "StationTypeId": 1,
    "Status": 1,
    "BuildDate": "42:56.7",
    "Phone": 0,
    "Manager": 0,
    "Description": 0,
    "IsMonitor": 1,
    "IsContrast": 0
  },
  {
    "StationId": 6,
    "PositionName": "二十九中",
    "Area": "呼和浩特市",
    "UniqueCode": 150100055,
    "StationCode": "1006A",
    "StationPic": 0,
    "Longitude": 111.7277,
    "Latitude": 40.8062,
    "Address": 0,
    "PollutantCodes": "100,101,102,104,105,000",
    "StationTypeId": 1,
    "Status": 1,
    "BuildDate": "42:56.7",
    "Phone": 0,
    "Manager": 0,
    "Description": 0,
    "IsMonitor": 1,
    "IsContrast": 0
  },
  {
    "StationId": 7,
    "PositionName": "工大金川校区",
    "Area": "呼和浩特市",
    "UniqueCode": 150100057,
    "StationCode": "1007A",
    "StationPic": 0,
    "Longitude": 111.551,
    "Latitude": 40.7866,
    "Address": 0,
    "PollutantCodes": "100,101,102,104,105,000",
    "StationTypeId": 1,
    "Status": 1,
    "BuildDate": "42:56.8",
    "Phone": 0,
    "Manager": 0,
    "Description": 0,
    "IsMonitor": 1,
    "IsContrast": 0
  },
  {
    "StationId": 8,
    "PositionName": "化肥厂生活区",
    "Area": "呼和浩特市",
    "UniqueCode": 150100058,
    "StationCode": "1008A",
    "StationPic": 0,
    "Longitude": 111.717,
    "Latitude": 40.7612,
    "Address": 0,
    "PollutantCodes": "100,101,102,104,105,000",
    "StationTypeId": 1,
    "Status": 1,
    "BuildDate": "42:56.8",
    "Phone": 0,
    "Manager": 0,
    "Description": 0,
    "IsMonitor": 1,
    "IsContrast": 0
  },
  {
    "StationId": 9,
    "PositionName": "市环境监测站",
    "Area": "包头市",
    "UniqueCode": 150200082,
    "StationCode": "1009A",
    "StationPic": 0,
    "Longitude": 109.8756,
    "Latitude": 40.6532,
    "Address": 0,
    "PollutantCodes": "100,101,102,104,105,000",
    "StationTypeId": 1,
    "Status": 1,
    "BuildDate": "42:57.4",
    "Phone": 0,
    "Manager": 0,
    "Description": 0,
    "IsMonitor": 1,
    "IsContrast": 0
  },
  {
    "StationId": 10,
    "PositionName": "包百大楼",
    "Area": "包头市",
    "UniqueCode": 150200083,
    "StationCode": "1010A",
    "StationPic": 0,
    "Longitude": 109.8104,
    "Latitude": 40.6575,
    "Address": 0,
    "PollutantCodes": "100,101,102,104,105,000",
    "StationTypeId": 1,
    "Status": 1,
    "BuildDate": "42:57.4",
    "Phone": 0,
    "Manager": 0,
    "Description": 0,
    "IsMonitor": 1,
    "IsContrast": 0
  },
  {
    "StationId": 11,
    "PositionName": "东河城环局",
    "Area": "包头市",
    "UniqueCode": 150200084,
    "StationCode": "1011A",
    "StationPic": 0,
    "Longitude": 110.0067,
    "Latitude": 40.5905,
    "Address": 0,
    "PollutantCodes": "100,101,102,104,105,000",
    "StationTypeId": 1,
    "Status": 1,
    "BuildDate": "42:57.4",
    "Phone": 0,
    "Manager": 0,
    "Description": 0,
    "IsMonitor": 1,
    "IsContrast": 0
  },
  {
    "StationId": 12,
    "PositionName": "青山宾馆",
    "Area": "包头市",
    "UniqueCode": 150200085,
    "StationCode": "1012A",
    "StationPic": 0,
    "Longitude": 109.8538,
    "Latitude": 40.6821,
    "Address": 0,
    "PollutantCodes": "100,101,102,104,105,000",
    "StationTypeId": 1,
    "Status": 1,
    "BuildDate": "42:57.4",
    "Phone": 0,
    "Manager": 0,
    "Description": 0,
    "IsMonitor": 1,
    "IsContrast": 0
  },
  {
    "StationId": 13,
    "PositionName": "惠龙物流",
    "Area": "包头市",
    "UniqueCode": 150200086,
    "StationCode": "1013A",
    "StationPic": 0,
    "Longitude": 109.8654,
    "Latitude": 40.6288,
    "Address": 0,
    "PollutantCodes": "100,101,102,104,105,000",
    "StationTypeId": 1,
    "Status": 1,
    "BuildDate": "42:57.4",
    "Phone": 0,
    "Manager": 0,
    "Description": 0,
    "IsMonitor": 1,
    "IsContrast": 0
  },
  {
    "StationId": 14,
    "PositionName": "东河鸿龙湾",
    "Area": "包头市",
    "UniqueCode": 150200087,
    "StationCode": "1014A",
    "StationPic": 0,
    "Longitude": 110.0377,
    "Latitude": 40.5546,
    "Address": 0,
    "PollutantCodes": "100,101,102,104,105,000",
    "StationTypeId": 1,
    "Status": 1,
    "BuildDate": "42:57.4",
    "Phone": 0,
    "Manager": 0,
    "Description": 0,
    "IsMonitor": 1,
    "IsContrast": 0
  },
  {
    "StationId": 15,
    "PositionName": "聚英学校",
    "Area": "乌海市",
    "UniqueCode": 150300461,
    "StationCode": "1015A",
    "StationPic": 0,
    "Longitude": 106.8219,
    "Latitude": 39.6719,
    "Address": 0,
    "PollutantCodes": "100,101,102,104,105,000",
    "StationTypeId": 1,
    "Status": 1,
    "BuildDate": "42:58.0",
    "Phone": 0,
    "Manager": 0,
    "Description": "2014年8月第三批加入站点",
    "IsMonitor": 1,
    "IsContrast": 0
  },
  {
    "StationId": 16,
    "PositionName": "市林业局",
    "Area": "乌海市",
    "UniqueCode": 150300462,
    "StationCode": "1016A",
    "StationPic": 0,
    "Longitude": 106.8089,
    "Latitude": 39.6969,
    "Address": 0,
    "PollutantCodes": "100,101,102,104,105,000",
    "StationTypeId": 1,
    "Status": 1,
    "BuildDate": "42:58.0",
    "Phone": 0,
    "Manager": 0,
    "Description": "2014年8月第三批加入站点",
    "IsMonitor": 1,
    "IsContrast": 0
  },
  {
    "StationId": 17,
    "PositionName": "中海勃湾学校",
    "Area": "乌海市",
    "UniqueCode": 150300463,
    "StationCode": "1017A",
    "StationPic": 0,
    "Longitude": 106.7931,
    "Latitude": 39.6572,
    "Address": 0,
    "PollutantCodes": "100,101,102,104,105,000",
    "StationTypeId": 1,
    "Status": 1,
    "BuildDate": "42:58.0",
    "Phone": 0,
    "Manager": 0,
    "Description": "2014年8月第三批加入站点",
    "IsMonitor": 1,
    "IsContrast": 0
  },
  {
    "StationId": 18,
    "PositionName": "松山一中",
    "Area": "赤峰市",
    "UniqueCode": 150400441,
    "StationCode": "1018A",
    "StationPic": 0,
    "Longitude": 118.9233,
    "Latitude": 42.2814,
    "Address": 0,
    "PollutantCodes": "100,101,102,104,105,000",
    "StationTypeId": 1,
    "Status": 1,
    "BuildDate": "42:57.6",
    "Phone": 0,
    "Manager": 0,
    "Description": 0,
    "IsMonitor": 1,
    "IsContrast": 0
  },
  {
    "StationId": 19,
    "PositionName": "哈达街",
    "Area": "赤峰市",
    "UniqueCode": 150400442,
    "StationCode": "1019A",
    "StationPic": 0,
    "Longitude": 118.9572,
    "Latitude": 42.2725,
    "Address": 0,
    "PollutantCodes": "100,101,102,104,105,000",
    "StationTypeId": 1,
    "Status": 1,
    "BuildDate": "42:57.6",
    "Phone": 0,
    "Manager": 0,
    "Description": 0,
    "IsMonitor": 1,
    "IsContrast": 0
  },
  {
    "StationId": 20,
    "PositionName": "天义路",
    "Area": "赤峰市",
    "UniqueCode": 150400446,
    "StationCode": "1020A",
    "StationPic": 0,
    "Longitude": 118.8789,
    "Latitude": 42.2556,
    "Address": 0,
    "PollutantCodes": "100,101,102,104,105,000",
    "StationTypeId": 1,
    "Status": 1,
    "BuildDate": "42:57.6",
    "Phone": 0,
    "Manager": 0,
    "Description": 0,
    "IsMonitor": 1,
    "IsContrast": 0
  },
  {
    "StationId": 21,
    "PositionName": "松山路",
    "Area": "赤峰市",
    "UniqueCode": 150400447,
    "StationCode": "1021A",
    "StationPic": 0,
    "Longitude": 119.2719,
    "Latitude": 42.0317,
    "Address": 0,
    "PollutantCodes": "100,101,102,104,105,000",
    "StationTypeId": 1,
    "Status": 1,
    "BuildDate": "42:57.6",
    "Phone": 0,
    "Manager": 0,
    "Description": 0,
    "IsMonitor": 1,
    "IsContrast": 0
  },
  {
    "StationId": 22,
    "PositionName": "通辽宾馆",
    "Area": "通辽市",
    "UniqueCode": 150500806,
    "StationCode": "1022A",
    "StationPic": 0,
    "Longitude": 122.2603,
    "Latitude": 43.6267,
    "Address": 0,
    "PollutantCodes": "100,101,102,104,105,000",
    "StationTypeId": 1,
    "Status": 1,
    "BuildDate": "42:58.0",
    "Phone": 0,
    "Manager": 0,
    "Description": "2014年8月第三批加入站点",
    "IsMonitor": 1,
    "IsContrast": 0
  },
  {
    "StationId": 23,
    "PositionName": "胶建铝业",
    "Area": "通辽市",
    "UniqueCode": 150500807,
    "StationCode": "1023A",
    "StationPic": 0,
    "Longitude": 122.3039,
    "Latitude": 43.6156,
    "Address": 0,
    "PollutantCodes": "100,101,102,104,105,000",
    "StationTypeId": 1,
    "Status": 1,
    "BuildDate": "42:58.0",
    "Phone": 0,
    "Manager": 0,
    "Description": "2014年8月第三批加入站点",
    "IsMonitor": 1,
    "IsContrast": 0
  },
  {
    "StationId": 24,
    "PositionName": "艺术职业学校",
    "Area": "通辽市",
    "UniqueCode": 150500808,
    "StationCode": "1024A",
    "StationPic": 0,
    "Longitude": 122.2532,
    "Latitude": 43.6801,
    "Address": 0,
    "PollutantCodes": "100,101,102,104,105,000",
    "StationTypeId": 1,
    "Status": 1,
    "BuildDate": "42:58.0",
    "Phone": 0,
    "Manager": 0,
    "Description": "2014年8月第三批加入站点",
    "IsMonitor": 1,
    "IsContrast": 0
  },
  {
    "StationId": 25,
    "PositionName": "综合楼",
    "Area": "鄂尔多斯市",
    "UniqueCode": 150600551,
    "StationCode": "1025A",
    "StationPic": 0,
    "Longitude": 110.0023,
    "Latitude": 39.8129,
    "Address": 0,
    "PollutantCodes": "100,101,102,104,105,000",
    "StationTypeId": 1,
    "Status": 1,
    "BuildDate": "42:57.4",
    "Phone": 0,
    "Manager": 0,
    "Description": 0,
    "IsMonitor": 1,
    "IsContrast": 0
  },
  {
    "StationId": 26,
    "PositionName": "巴音孟克林场办事处",
    "Area": "鄂尔多斯市",
    "UniqueCode": 150600554,
    "StationCode": "1026A",
    "StationPic": 0,
    "Longitude": 109.9486,
    "Latitude": 39.8261,
    "Address": 0,
    "PollutantCodes": "100,101,102,104,105,000",
    "StationTypeId": 1,
    "Status": 1,
    "BuildDate": "42:57.4",
    "Phone": 0,
    "Manager": 0,
    "Description": 0,
    "IsMonitor": 1,
    "IsContrast": 0
  },
  {
    "StationId": 27,
    "PositionName": "康泽苑",
    "Area": "鄂尔多斯市",
    "UniqueCode": 150600555,
    "StationCode": "1027A",
    "StationPic": 0,
    "Longitude": 109.7736,
    "Latitude": 39.5986,
    "Address": 0,
    "PollutantCodes": "100,101,102,104,105,000",
    "StationTypeId": 1,
    "Status": 1,
    "BuildDate": "42:57.4",
    "Phone": 0,
    "Manager": 0,
    "Description": 0,
    "IsMonitor": 1,
    "IsContrast": 0
  },
  {
    "StationId": 28,
    "PositionName": "华泰汽车城",
    "Area": "鄂尔多斯市",
    "UniqueCode": 150600556,
    "StationCode": "1028A",
    "StationPic": 0,
    "Longitude": 109.8119,
    "Latitude": 39.5989,
    "Address": 0,
    "PollutantCodes": "100,101,102,104,105,000",
    "StationTypeId": 1,
    "Status": 1,
    "BuildDate": "42:57.4",
    "Phone": 0,
    "Manager": 0,
    "Description": 0,
    "IsMonitor": 1,
    "IsContrast": 0
  },
  {
    "StationId": 29,
    "PositionName": "奥林花园",
    "Area": "鄂尔多斯市",
    "UniqueCode": 150600557,
    "StationCode": "1029A",
    "StationPic": 0,
    "Longitude": 109.9734,
    "Latitude": 39.7884,
    "Address": 0,
    "PollutantCodes": "100,101,102,104,105,000",
    "StationTypeId": 1,
    "Status": 1,
    "BuildDate": "42:57.4",
    "Phone": 0,
    "Manager": 0,
    "Description": 0,
    "IsMonitor": 1,
    "IsContrast": 0
  },
  {
    "StationId": 30,
    "PositionName": "区环保局",
    "Area": "呼伦贝尔市",
    "UniqueCode": 150700131,
    "StationCode": "1030A",
    "StationPic": 0,
    "Longitude": 119.7594,
    "Latitude": 49.2261,
    "Address": 0,
    "PollutantCodes": "100,101,102,104,105,000",
    "StationTypeId": 1,
    "Status": 1,
    "BuildDate": "42:58.0",
    "Phone": 0,
    "Manager": 0,
    "Description": "2014年8月第三批加入站点",
    "IsMonitor": 1,
    "IsContrast": 0
  },
  {
    "StationId": 31,
    "PositionName": "市艺校",
    "Area": "呼伦贝尔市",
    "UniqueCode": 150700132,
    "StationCode": "1031A",
    "StationPic": 0,
    "Longitude": 119.7283,
    "Latitude": 49.2014,
    "Address": 0,
    "PollutantCodes": "100,101,102,104,105,000",
    "StationTypeId": 1,
    "Status": 1,
    "BuildDate": "42:58.0",
    "Phone": 0,
    "Manager": 0,
    "Description": "2014年8月第三批加入站点",
    "IsMonitor": 1,
    "IsContrast": 0
  },
  {
    "StationId": 32,
    "PositionName": "秋林养殖基地",
    "Area": "巴彦淖尔市",
    "UniqueCode": 150800011,
    "StationCode": "1032A",
    "StationPic": 0,
    "Longitude": 107.5936,
    "Latitude": 40.916,
    "Address": 0,
    "PollutantCodes": "100,101,102,104,105,000",
    "StationTypeId": 1,
    "Status": 1,
    "BuildDate": "42:58.0",
    "Phone": 0,
    "Manager": 0,
    "Description": "2014年8月第三批加入站点",
    "IsMonitor": 1,
    "IsContrast": 1
  },
  {
    "StationId": 33,
    "PositionName": "附中",
    "Area": "巴彦淖尔市",
    "UniqueCode": 150800566,
    "StationCode": "1033A",
    "StationPic": 0,
    "Longitude": 107.4211,
    "Latitude": 40.7608,
    "Address": 0,
    "PollutantCodes": "100,101,102,104,105,000",
    "StationTypeId": 1,
    "Status": 1,
    "BuildDate": "42:58.0",
    "Phone": 0,
    "Manager": 0,
    "Description": "2014年8月第三批加入站点",
    "IsMonitor": 1,
    "IsContrast": 0
  },
  {
    "StationId": 34,
    "PositionName": "市环保大楼",
    "Area": "巴彦淖尔市",
    "UniqueCode": 150800567,
    "StationCode": "1034A",
    "StationPic": 0,
    "Longitude": 107.3715,
    "Latitude": 40.7378,
    "Address": 0,
    "PollutantCodes": "100,101,102,104,105,000",
    "StationTypeId": 1,
    "Status": 1,
    "BuildDate": "42:58.0",
    "Phone": 0,
    "Manager": 0,
    "Description": "2014年8月第三批加入站点",
    "IsMonitor": 1,
    "IsContrast": 0
  },
  {
    "StationId": 35,
    "PositionName": "集宁新区",
    "Area": "乌兰察布市",
    "UniqueCode": 150900850,
    "StationCode": "1035A",
    "StationPic": 0,
    "Longitude": 113.1306,
    "Latitude": 40.9923,
    "Address": 0,
    "PollutantCodes": "100,101,102,104,105,000",
    "StationTypeId": 1,
    "Status": 1,
    "BuildDate": "42:58.0",
    "Phone": 0,
    "Manager": 0,
    "Description": "2014年8月第三批加入站点",
    "IsMonitor": 1,
    "IsContrast": 0
  },
  {
    "StationId": 36,
    "PositionName": "集宁旧区西",
    "Area": "乌兰察布市",
    "UniqueCode": 150900851,
    "StationCode": "1036A",
    "StationPic": 0,
    "Longitude": 113.0974,
    "Latitude": 41.038,
    "Address": 0,
    "PollutantCodes": "100,101,102,104,105,000",
    "StationTypeId": 1,
    "Status": 1,
    "BuildDate": "42:58.0",
    "Phone": 0,
    "Manager": 0,
    "Description": "2014年8月第三批加入站点",
    "IsMonitor": 1,
    "IsContrast": 0
  },
  {
    "StationId": 37,
    "PositionName": "盟监测站",
    "Area": "兴安盟",
    "UniqueCode": 152200525,
    "StationCode": "1037A",
    "StationPic": 0,
    "Longitude": 122.062,
    "Latitude": 46.0872,
    "Address": 0,
    "PollutantCodes": "100,101,102,104,105,000",
    "StationTypeId": 1,
    "Status": 1,
    "BuildDate": "42:58.0",
    "Phone": 0,
    "Manager": 0,
    "Description": "2014年8月第三批加入站点",
    "IsMonitor": 1,
    "IsContrast": 0
  },
  {
    "StationId": 38,
    "PositionName": "胜华新制药厂",
    "Area": "兴安盟",
    "UniqueCode": 152200526,
    "StationCode": "1038A",
    "StationPic": 0,
    "Longitude": 122.0506,
    "Latitude": 46.0703,
    "Address": 0,
    "PollutantCodes": "100,101,102,104,105,000",
    "StationTypeId": 1,
    "Status": 1,
    "BuildDate": "42:58.0",
    "Phone": 0,
    "Manager": 0,
    "Description": "2014年8月第三批加入站点",
    "IsMonitor": 1,
    "IsContrast": 0
  },
  {
    "StationId": 39,
    "PositionName": "科右前旗环保局",
    "Area": "兴安盟",
    "UniqueCode": 152200527,
    "StationCode": "1039A",
    "StationPic": 0,
    "Longitude": 121.9462,
    "Latitude": 46.0756,
    "Address": 0,
    "PollutantCodes": "100,101,102,104,105,000",
    "StationTypeId": 1,
    "Status": 1,
    "BuildDate": "42:58.0",
    "Phone": 0,
    "Manager": 0,
    "Description": "2014年8月第三批加入站点",
    "IsMonitor": 1,
    "IsContrast": 0
  },
  {
    "StationId": 40,
    "PositionName": "市环保监测站",
    "Area": "锡林郭勒盟",
    "UniqueCode": 152500819,
    "StationCode": "1040A",
    "StationPic": 0,
    "Longitude": 116.1042,
    "Latitude": 43.9317,
    "Address": 0,
    "PollutantCodes": "100,101,102,104,105,000",
    "StationTypeId": 1,
    "Status": 1,
    "BuildDate": "42:58.0",
    "Phone": 0,
    "Manager": 0,
    "Description": "2014年8月第三批加入站点",
    "IsMonitor": 1,
    "IsContrast": 0
  },
  {
    "StationId": 41,
    "PositionName": "市政府",
    "Area": "锡林郭勒盟",
    "UniqueCode": 152500820,
    "StationCode": "1041A",
    "StationPic": 0,
    "Longitude": 116.0781,
    "Latitude": 43.9311,
    "Address": 0,
    "PollutantCodes": "100,101,102,104,105,000",
    "StationTypeId": 1,
    "Status": 1,
    "BuildDate": "42:58.0",
    "Phone": 0,
    "Manager": 0,
    "Description": "2014年8月第三批加入站点",
    "IsMonitor": 1,
    "IsContrast": 0
  },
  {
    "StationId": 42,
    "PositionName": "体育场",
    "Area": "阿拉善盟",
    "UniqueCode": 152900012,
    "StationCode": "1042A",
    "StationPic": 0,
    "Longitude": 105.6775,
    "Latitude": 38.8343,
    "Address": 0,
    "PollutantCodes": "100,101,102,104,105,000",
    "StationTypeId": 1,
    "Status": 1,
    "BuildDate": "42:58.0",
    "Phone": 0,
    "Manager": 0,
    "Description": "2014年8月第三批加入站点",
    "IsMonitor": 1,
    "IsContrast": 1
  },
  {
    "StationId": 43,
    "PositionName": "盟环保楼",
    "Area": "阿拉善盟",
    "UniqueCode": 152900051,
    "StationCode": "1043A",
    "StationPic": 0,
    "Longitude": 105.6975,
    "Latitude": 38.843,
    "Address": 0,
    "PollutantCodes": "100,101,102,104,105,000",
    "StationTypeId": 1,
    "Status": 1,
    "BuildDate": "42:58.0",
    "Phone": 0,
    "Manager": 0,
    "Description": "2014年8月第三批加入站点",
    "IsMonitor": 1,
    "IsContrast": 0
  },
  {
    "StationId": 44,
    "PositionName": "环保局新楼",
    "Area": "阿拉善盟",
    "UniqueCode": 152900052,
    "StationCode": "1044A",
    "StationPic": 0,
    "Longitude": 105.724,
    "Latitude": 38.8516,
    "Address": 0,
    "PollutantCodes": "100,101,102,104,105,000",
    "StationTypeId": 1,
    "Status": 1,
    "BuildDate": "42:58.0",
    "Phone": 0,
    "Manager": 0,
    "Description": "2014年8月第三批加入站点",
    "IsMonitor": 1,
    "IsContrast": 0
  }
]